{
"type": "FeatureCollection",
"name": "cycle_eau_V1",
"crs": { "type": "name", "properties": { "name": "urn:ogc:def:crs:OGC:1.3:CRS84" } },
"features": [
{ "type": "Feature", "properties": { "id": 31555, "insee": "31555", "communes_nom": "TOULOUSE", "communes_created": null, "communes_updated": null, "ID_Projet": "131", "Type_ouvrage": "RCU - Réseaux de chaleur urbains", "nom_projet": "DSP Plaine Campus (Secteur 13)" }, "geometry": { "type": "Point", "coordinates": [ 1.497541229428104, 43.567288293497839 ] } },
{ "type": "Feature", "properties": { "id": 31555, "insee": "31555", "communes_nom": "TOULOUSE", "communes_created": null, "communes_updated": null, "ID_Projet": "129", "Type_ouvrage": "RCU - Réseaux de chaleur urbains", "nom_projet": "DSP Plaine Campus (Secteur 5)" }, "geometry": { "type": "Point", "coordinates": [ 1.435635004497923, 43.618621972438874 ] } },
{ "type": "Feature", "properties": { "id": 31555, "insee": "31555", "communes_nom": "TOULOUSE", "communes_created": null, "communes_updated": null, "ID_Projet": "162", "Type_ouvrage": "RCU - Réseaux de chaleur urbains", "nom_projet": "RCU Dalkia Purpan" }, "geometry": { "type": "Point", "coordinates": [ 1.399109180651866, 43.609734989556223 ] } },
{ "type": "Feature", "properties": { "id": 31555, "insee": "31555", "communes_nom": "TOULOUSE", "communes_created": null, "communes_updated": null, "ID_Projet": "134", "Type_ouvrage": "RCU - Réseaux de chaleur urbains", "nom_projet": "Interconnexion (Feeder) Cépière - ZAC Cartoucherie - Travaux de réseau d'eau chaude basse pression" }, "geometry": { "type": "Point", "coordinates": [ 1.40104273240408, 43.586165647968777 ] } },
{ "type": "Feature", "properties": { "id": 31555, "insee": "31555", "communes_nom": "TOULOUSE", "communes_created": null, "communes_updated": null, "ID_Projet": "127", "Type_ouvrage": "RCU - Réseaux de chaleur urbains", "nom_projet": "DSP Plaine Campus (Secteur 3)" }, "geometry": { "type": "Point", "coordinates": [ 1.38695615148539, 43.597910858636247 ] } },
{ "type": "Feature", "properties": { "id": 31555, "insee": "31555", "communes_nom": "TOULOUSE", "communes_created": null, "communes_updated": null, "ID_Projet": "42", "Type_ouvrage": "RCU - Réseaux de chaleur urbains", "nom_projet": "RCU TOULOUSE" }, "geometry": { "type": "Point", "coordinates": [ 1.432092200463061, 43.596009282759276 ] } },
{ "type": "Feature", "properties": { "id": 35238, "insee": "35238", "communes_nom": "RENNES", "communes_created": null, "communes_updated": null, "ID_Projet": "37", "Type_ouvrage": "RCU - Réseaux de chaleur urbains", "nom_projet": "RCU RENNES" }, "geometry": { "type": "Point", "coordinates": [ -1.678059812598343, 48.118860355399576 ] } },
{ "type": "Feature", "properties": { "id": 31555, "insee": "31555", "communes_nom": "TOULOUSE", "communes_created": null, "communes_updated": null, "ID_Projet": "123", "Type_ouvrage": "RCU - Réseaux de chaleur urbains", "nom_projet": "DSP Plaine Campus - ZAC TMA (Secteur 16)" }, "geometry": { "type": "Point", "coordinates": [ 1.444169932034594, 43.608429091144885 ] } },
{ "type": "Feature", "properties": { "id": 35238, "insee": "35238", "communes_nom": "RENNES", "communes_created": null, "communes_updated": null, "ID_Projet": "55", "Type_ouvrage": "RCU - Réseaux de chaleur urbains", "nom_projet": "RCU RENNES" }, "geometry": { "type": "Point", "coordinates": [ -1.673595277153347, 48.110904736541762 ] } },
{ "type": "Feature", "properties": { "id": 35238, "insee": "35238", "communes_nom": "RENNES", "communes_created": null, "communes_updated": null, "ID_Projet": "58", "Type_ouvrage": "RCU - Réseaux de chaleur urbains", "nom_projet": "RCU RENNES" }, "geometry": { "type": "Point", "coordinates": [ -1.680099089101378, 48.115045748117744 ] } },
{ "type": "Feature", "properties": { "id": 31555, "insee": "31555", "communes_nom": "TOULOUSE", "communes_created": null, "communes_updated": null, "ID_Projet": "138", "Type_ouvrage": "RCU - Réseaux de chaleur urbains", "nom_projet": "Réseau de Chaleur Urbain Extension Logement 2013" }, "geometry": { "type": "Point", "coordinates": [ 1.456065801400181, 43.559338598944947 ] } },
{ "type": "Feature", "properties": { "id": 31555, "insee": "31555", "communes_nom": "TOULOUSE", "communes_created": null, "communes_updated": null, "ID_Projet": "169", "Type_ouvrage": "RCU - Réseaux de chaleur urbains", "nom_projet": "Restructuration des externats" }, "geometry": { "type": "Point", "coordinates": [ 1.422737739022831, 43.560754125113341 ] } },
{ "type": "Feature", "properties": { "id": 35238, "insee": "35238", "communes_nom": "RENNES", "communes_created": null, "communes_updated": null, "ID_Projet": "174", "Type_ouvrage": "RCU - Réseaux de chaleur urbains", "nom_projet": "Chauffage urbain - La Poterie" }, "geometry": { "type": "Point", "coordinates": [ -1.640007382450793, 48.092855146343112 ] } },
{ "type": "Feature", "properties": { "id": 31555, "insee": "31555", "communes_nom": "TOULOUSE", "communes_created": null, "communes_updated": null, "ID_Projet": "129", "Type_ouvrage": "RCU - Réseaux de chaleur urbains", "nom_projet": "DSP Plaine Campus (Secteur 5)" }, "geometry": { "type": "Point", "coordinates": [ 1.364397102877768, 43.606836483353142 ] } },
{ "type": "Feature", "properties": { "id": 35238, "insee": "35238", "communes_nom": "RENNES", "communes_created": null, "communes_updated": null, "ID_Projet": "7", "Type_ouvrage": "Canalisations", "nom_projet": "Canalisations RENNES" }, "geometry": { "type": "Point", "coordinates": [ -1.67079180853184, 48.116833393394764 ] } },
{ "type": "Feature", "properties": { "id": 31555, "insee": "31555", "communes_nom": "TOULOUSE", "communes_created": null, "communes_updated": null, "ID_Projet": "137", "Type_ouvrage": "RCU - Réseaux de chaleur urbains", "nom_projet": "DSP Plaine Campus ZAC Empalot (Secteur 12)" }, "geometry": { "type": "Point", "coordinates": [ 1.439966753227545, 43.580212319663751 ] } },
{ "type": "Feature", "properties": { "id": 35238, "insee": "35238", "communes_nom": "RENNES", "communes_created": null, "communes_updated": null, "ID_Projet": "173", "Type_ouvrage": "RCU - Réseaux de chaleur urbains", "nom_projet": "Chauffage urbain - Rennes Nord" }, "geometry": { "type": "Point", "coordinates": [ -1.660631091056263, 48.139774250350399 ] } },
{ "type": "Feature", "properties": { "id": 31555, "insee": "31555", "communes_nom": "TOULOUSE", "communes_created": null, "communes_updated": null, "ID_Projet": "167", "Type_ouvrage": "RCU - Réseaux de chaleur urbains", "nom_projet": "DSP Plaine Campus - ZAC Chalets" }, "geometry": { "type": "Point", "coordinates": [ 1.467804031474256, 43.618448728404346 ] } },
{ "type": "Feature", "properties": { "id": 35238, "insee": "35238", "communes_nom": "RENNES", "communes_created": null, "communes_updated": null, "ID_Projet": "59", "Type_ouvrage": "RCU - Réseaux de chaleur urbains", "nom_projet": "RCU RENNES" }, "geometry": { "type": "Point", "coordinates": [ -1.681845881933122, 48.111679158551446 ] } },
{ "type": "Feature", "properties": { "id": 6088, "insee": "06088", "communes_nom": "NICE", "communes_created": null, "communes_updated": null, "ID_Projet": "90", "Type_ouvrage": "Réservoir", "nom_projet": "Réservoir NICE" }, "geometry": { "type": "Point", "coordinates": [ 7.258991818209661, 43.71186450194643 ] } },
{ "type": "Feature", "properties": { "id": 14167, "insee": "14167", "communes_nom": "COLOMBELLES", "communes_created": null, "communes_updated": null, "ID_Projet": "11", "Type_ouvrage": "Canalisations", "nom_projet": "Canalisations COLOMBELLES" }, "geometry": { "type": "Point", "coordinates": [ -0.285526841060956, 49.200751118365936 ] } },
{ "type": "Feature", "properties": { "id": 31555, "insee": "31555", "communes_nom": "TOULOUSE", "communes_created": null, "communes_updated": null, "ID_Projet": "161", "Type_ouvrage": "RCU - Réseaux de chaleur urbains", "nom_projet": "Aménagement de la ZAC Cartoucherie - Déploiement du réseau de chaleur et de refroidissement (Ilots n°1.1 et 1.6)" }, "geometry": { "type": "Point", "coordinates": [ 1.420584358410828, 43.639035423373507 ] } },
{ "type": "Feature", "properties": { "id": 35238, "insee": "35238", "communes_nom": "RENNES", "communes_created": null, "communes_updated": null, "ID_Projet": "48", "Type_ouvrage": "RCU - Réseaux de chaleur urbains", "nom_projet": "RCU RENNES" }, "geometry": { "type": "Point", "coordinates": [ -1.686636682336958, 48.116146097503588 ] } },
{ "type": "Feature", "properties": { "id": 44109, "insee": "44109", "communes_nom": "NANTES", "communes_created": null, "communes_updated": null, "ID_Projet": "120", "Type_ouvrage": "RCU - Réseaux de chaleur urbains", "nom_projet": "Réseau de chaleur" }, "geometry": { "type": "Point", "coordinates": [ -1.552394497766543, 47.230249289394941 ] } },
{ "type": "Feature", "properties": { "id": 6088, "insee": "06088", "communes_nom": "NICE", "communes_created": null, "communes_updated": null, "ID_Projet": "31", "Type_ouvrage": "RCU - Réseaux de chaleur urbains", "nom_projet": "RCU NICE" }, "geometry": { "type": "Point", "coordinates": [ 7.238035911097892, 43.712336328522476 ] } },
{ "type": "Feature", "properties": { "id": 14167, "insee": "14167", "communes_nom": "COLOMBELLES", "communes_created": null, "communes_updated": null, "ID_Projet": "24", "Type_ouvrage": "RCU - Réseaux de chaleur urbains", "nom_projet": "RCU COLOMBELLES" }, "geometry": { "type": "Point", "coordinates": [ -0.302378998385602, 49.193392634264001 ] } },
{ "type": "Feature", "properties": { "id": 31555, "insee": "31555", "communes_nom": "TOULOUSE", "communes_created": null, "communes_updated": null, "ID_Projet": "141", "Type_ouvrage": "RCU - Réseaux de chaleur urbains", "nom_projet": "DSP Plaine Campus (Secteur 10)" }, "geometry": { "type": "Point", "coordinates": [ 1.458025847940491, 43.637257209111603 ] } },
{ "type": "Feature", "properties": { "id": 35238, "insee": "35238", "communes_nom": "RENNES", "communes_created": null, "communes_updated": null, "ID_Projet": "172", "Type_ouvrage": "RCU - Réseaux de chaleur urbains", "nom_projet": "RCU Quartier Marguerite" }, "geometry": { "type": "Point", "coordinates": [ -1.67903186252954, 48.095686101282041 ] } },
{ "type": "Feature", "properties": { "id": 44109, "insee": "44109", "communes_nom": "NANTES", "communes_created": null, "communes_updated": null, "ID_Projet": "121", "Type_ouvrage": "RCU - Réseaux de chaleur urbains", "nom_projet": "DSP Réseau de chaleur" }, "geometry": { "type": "Point", "coordinates": [ -1.553835120873866, 47.233458382501638 ] } },
{ "type": "Feature", "properties": { "id": 6088, "insee": "06088", "communes_nom": "NICE", "communes_created": null, "communes_updated": null, "ID_Projet": "126", "Type_ouvrage": "Réservoir", "nom_projet": "MERIDIA SMART ENERGIE - Lot réseau" }, "geometry": { "type": "Point", "coordinates": [ 7.273314849963961, 43.702810707575388 ] } },
{ "type": "Feature", "properties": { "id": 14167, "insee": "14167", "communes_nom": "COLOMBELLES", "communes_created": null, "communes_updated": null, "ID_Projet": "36", "Type_ouvrage": "RCU - Réseaux de chaleur urbains", "nom_projet": "RCU COLOMBELLES" }, "geometry": { "type": "Point", "coordinates": [ -0.295169696610926, 49.198600350097955 ] } },
{ "type": "Feature", "properties": { "id": 30288, "insee": "30288", "communes_nom": "SAINT-NAZAIRE", "communes_created": null, "communes_updated": null, "ID_Projet": "35", "Type_ouvrage": "RCU - Réseaux de chaleur urbains", "nom_projet": "RCU ST NAZAIRE" }, "geometry": { "type": "Point", "coordinates": [ 4.613503315576859, 44.201785592500215 ] } },
{ "type": "Feature", "properties": { "id": 31555, "insee": "31555", "communes_nom": "TOULOUSE", "communes_created": null, "communes_updated": null, "ID_Projet": "140", "Type_ouvrage": "RCU - Réseaux de chaleur urbains", "nom_projet": "Etude et Construction d'un ouvrage de type microtunnelier avec passage d'un réseau de chaleur - Plaine Campus (Secteur 4)" }, "geometry": { "type": "Point", "coordinates": [ 1.388191490347944, 43.564246510346152 ] } },
{ "type": "Feature", "properties": { "id": 35238, "insee": "35238", "communes_nom": "RENNES", "communes_created": null, "communes_updated": null, "ID_Projet": "146", "Type_ouvrage": "RCU - Réseaux de chaleur urbains", "nom_projet": "Chauffage urbain - Renouvellement de réseaux Secteurs Gineste/La Harpe/Usine des Eaux" }, "geometry": { "type": "Point", "coordinates": [ -1.706743862636126, 48.127173987399843 ] } },
{ "type": "Feature", "properties": { "id": 44109, "insee": "44109", "communes_nom": "NANTES", "communes_created": null, "communes_updated": null, "ID_Projet": "145", "Type_ouvrage": "RCU - Réseaux de chaleur urbains", "nom_projet": "Raccordements PMA & HLM Perray\nLot Travaux Réseaux PARIDIS" }, "geometry": { "type": "Point", "coordinates": [ -1.544719205305019, 47.233149750683218 ] } },
{ "type": "Feature", "properties": { "id": 49007, "insee": "49007", "communes_nom": "ANGERS", "communes_created": null, "communes_updated": null, "ID_Projet": "160", "Type_ouvrage": "RCU - Réseaux de chaleur urbains", "nom_projet": "Renouvellement des réseaux de chauffage et sous-stations" }, "geometry": { "type": "Point", "coordinates": [ -0.545091243353276, 47.469430535596793 ] } },
{ "type": "Feature", "properties": { "id": 76410, "insee": "76410", "communes_nom": "MAROMME", "communes_created": null, "communes_updated": null, "ID_Projet": "166", "Type_ouvrage": "RCU - Réseaux de chaleur urbains", "nom_projet": "Extension du réseau de chaleur de la Clérette" }, "geometry": { "type": "Point", "coordinates": [ 1.030553397370754, 49.471835855700704 ] } },
{ "type": "Feature", "properties": { "id": 76540, "insee": "76540", "communes_nom": "ROUEN", "communes_created": null, "communes_updated": null, "ID_Projet": "152", "Type_ouvrage": "RCU - Réseaux de chaleur urbains", "nom_projet": "Interconnexion des chaufferies – La Petite Bouverie" }, "geometry": { "type": "Point", "coordinates": [ 1.147690322537763, 49.458618540573646 ] } },
{ "type": "Feature", "properties": { "id": 6088, "insee": "06088", "communes_nom": "NICE", "communes_created": null, "communes_updated": null, "ID_Projet": "157", "Type_ouvrage": "Réservoir", "nom_projet": "Réseau de chauffage urbain - Raccordement\nNICE MERIDIA Pleiade Palazzo" }, "geometry": { "type": "Point", "coordinates": [ 7.213332894253686, 43.697141361614506 ] } },
{ "type": "Feature", "properties": { "id": 14118, "insee": "14118", "communes_nom": "CAEN", "communes_created": null, "communes_updated": null, "ID_Projet": "27", "Type_ouvrage": "RCU - Réseaux de chaleur urbains", "nom_projet": "RCU CAEN" }, "geometry": { "type": "Point", "coordinates": [ -0.362209708292547, 49.180616086506134 ] } },
{ "type": "Feature", "properties": { "id": 14167, "insee": "14167", "communes_nom": "COLOMBELLES", "communes_created": null, "communes_updated": null, "ID_Projet": "26", "Type_ouvrage": "RCU - Réseaux de chaleur urbains", "nom_projet": "RCU COLOMBELLES" }, "geometry": { "type": "Point", "coordinates": [ -0.300725013540074, 49.202529307465035 ] } },
{ "type": "Feature", "properties": { "id": 19031, "insee": "19031", "communes_nom": "BRIVE LA GAILLARDE", "communes_created": null, "communes_updated": null, "ID_Projet": "39", "Type_ouvrage": "RCU - Réseaux de chaleur urbains", "nom_projet": "RCU BRIVE LA GAILLARDE" }, "geometry": { "type": "Point", "coordinates": [ 1.519116883385472, 45.14346453203693 ] } },
{ "type": "Feature", "properties": { "id": 22086, "insee": "22086", "communes_nom": "KERFOT", "communes_created": null, "communes_updated": null, "ID_Projet": "81", "Type_ouvrage": "Réservoir", "nom_projet": "Réservoir KERFOT" }, "geometry": { "type": "Point", "coordinates": [ -3.031373882944622, 48.736788485839917 ] } },
{ "type": "Feature", "properties": { "id": 30288, "insee": "30288", "communes_nom": "SAINT-NAZAIRE", "communes_created": null, "communes_updated": null, "ID_Projet": "32", "Type_ouvrage": "RCU - Réseaux de chaleur urbains", "nom_projet": "RCU ST NAZAIRE" }, "geometry": { "type": "Point", "coordinates": [ 4.62903479964856, 44.204115146609404 ] } },
{ "type": "Feature", "properties": { "id": 31555, "insee": "31555", "communes_nom": "TOULOUSE", "communes_created": null, "communes_updated": null, "ID_Projet": "139", "Type_ouvrage": "RCU - Réseaux de chaleur urbains", "nom_projet": "DSP Plaine Campus (Secteur 1)" }, "geometry": { "type": "Point", "coordinates": [ 1.472374865187337, 43.599145572654081 ] } },
{ "type": "Feature", "properties": { "id": 33119, "insee": "33119", "communes_nom": "LORMONT", "communes_created": null, "communes_updated": null, "ID_Projet": "47", "Type_ouvrage": "RCU - Réseaux de chaleur urbains", "nom_projet": "RCU CENON et LORMONT" }, "geometry": { "type": "Point", "coordinates": [ -0.51916913034043, 44.86954068291346 ] } },
{ "type": "Feature", "properties": { "id": 34172, "insee": "34172", "communes_nom": "MONTPELLIER", "communes_created": null, "communes_updated": null, "ID_Projet": "28", "Type_ouvrage": "RCU - Réseaux de chaleur urbains", "nom_projet": "RCU MONTPELLIER" }, "geometry": { "type": "Point", "coordinates": [ 3.892257935374976, 43.614828299526977 ] } },
{ "type": "Feature", "properties": { "id": 35238, "insee": "35238", "communes_nom": "RENNES", "communes_created": null, "communes_updated": null, "ID_Projet": "153", "Type_ouvrage": "RCU - Réseaux de chaleur urbains", "nom_projet": "Raccordement au réseau de chaleur Rennes Sud à la ZAC du Haut Sancé" }, "geometry": { "type": "Point", "coordinates": [ -1.656920556582464, 48.122933651411344 ] } },
{ "type": "Feature", "properties": { "id": 44109, "insee": "44109", "communes_nom": "SAINT HERBLAIN", "communes_created": null, "communes_updated": null, "ID_Projet": "52", "Type_ouvrage": "RCU - Réseaux de chaleur urbains", "nom_projet": "RCU ST HERBLAIN" }, "geometry": { "type": "Point", "coordinates": [ -1.633232094262999, 47.224811098960245 ] } },
{ "type": "Feature", "properties": { "id": 49007, "insee": "49007", "communes_nom": "ANGERS", "communes_created": null, "communes_updated": null, "ID_Projet": "124", "Type_ouvrage": "RCU - Réseaux de chaleur urbains", "nom_projet": "Création du Réseau de Chaleur  - Marché FEEDER - Parc d'activités d'Orgemont" }, "geometry": { "type": "Point", "coordinates": [ -0.571361399035354, 47.469487112363318 ] } },
{ "type": "Feature", "properties": { "id": 53130, "insee": "53130", "communes_nom": "LAVAL", "communes_created": null, "communes_updated": null, "ID_Projet": "87", "Type_ouvrage": "Réservoir", "nom_projet": "Réservoir LAVAL" }, "geometry": { "type": "Point", "coordinates": [ -0.76575013920947, 48.061076814283808 ] } },
{ "type": "Feature", "properties": { "id": 73065, "insee": "73065", "communes_nom": "CHAMBERY", "communes_created": null, "communes_updated": null, "ID_Projet": "155", "Type_ouvrage": "RCU - Réseaux de chaleur urbains", "nom_projet": "Rénovation du Chauffage urbain 2020" }, "geometry": { "type": "Point", "coordinates": [ 5.922174519513796, 45.575620645767167 ] } },
{ "type": "Feature", "properties": { "id": 76351, "insee": "76351", "communes_nom": "LE HAVRE", "communes_created": null, "communes_updated": null, "ID_Projet": "164", "Type_ouvrage": "RCU - Réseaux de chaleur urbains", "nom_projet": "CRAM - RCU Havre Sud" }, "geometry": { "type": "Point", "coordinates": [ 0.122944105448711, 49.502092261480037 ] } },
{ "type": "Feature", "properties": { "id": 76410, "insee": "76410", "communes_nom": "MAROMME", "communes_created": null, "communes_updated": null, "ID_Projet": "168", "Type_ouvrage": "RCU - Réseaux de chaleur urbains", "nom_projet": "Création des branchements de réseaux de chaleur des pavillons du Clos des roses" }, "geometry": { "type": "Point", "coordinates": [ 1.038471547538244, 49.480072978175052 ] } },
{ "type": "Feature", "properties": { "id": 76540, "insee": "76540", "communes_nom": "ROUEN", "communes_created": null, "communes_updated": null, "ID_Projet": "21", "Type_ouvrage": "Canalisations", "nom_projet": "Canalisations ROUEN" }, "geometry": { "type": "Point", "coordinates": [ 1.093432060275382, 49.441493605475671 ] } },
{ "type": "Feature", "properties": { "id": 6070, "insee": "06070", "communes_nom": "GREOLIERES", "communes_created": null, "communes_updated": null, "ID_Projet": "85", "Type_ouvrage": "Réservoir", "nom_projet": "Réservoir GREOLIERES" }, "geometry": { "type": "Point", "coordinates": [ 6.932047055310451, 43.807299706989042 ] } },
{ "type": "Feature", "properties": { "id": 6079, "insee": "06079", "communes_nom": "MANDELIEU LA NAPOULE", "communes_created": null, "communes_updated": null, "ID_Projet": "128", "Type_ouvrage": "RCU - Réseaux de chaleur urbains", "nom_projet": "Restructuration du centre-ville" }, "geometry": { "type": "Point", "coordinates": [ 6.918495580360878, 43.537995808304586 ] } },
{ "type": "Feature", "properties": { "id": 6088, "insee": "06088", "communes_nom": "NICE", "communes_created": null, "communes_updated": null, "ID_Projet": "163", "Type_ouvrage": "Réservoir", "nom_projet": "NICE MERIDIA Traversée Tramway ligne 3 Lot VRD" }, "geometry": { "type": "Point", "coordinates": [ 7.206213360417585, 43.730721963927259 ] } },
{ "type": "Feature", "properties": { "id": 10081, "insee": "10081", "communes_nom": "LA CHAPELLE ST LUC", "communes_created": null, "communes_updated": null, "ID_Projet": "34", "Type_ouvrage": "RCU - Réseaux de chaleur urbains", "nom_projet": "RCU LA CHAPELLE ST LUC" }, "geometry": { "type": "Point", "coordinates": [ 4.035957756742511, 48.316607705806938 ] } },
{ "type": "Feature", "properties": { "id": 10387, "insee": "10387", "communes_nom": "TROYES", "communes_created": null, "communes_updated": null, "ID_Projet": "56", "Type_ouvrage": "RCU - Réseaux de chaleur urbains", "nom_projet": "RCU TROYES" }, "geometry": { "type": "Point", "coordinates": [ 4.078455464006349, 48.296739109093018 ] } },
{ "type": "Feature", "properties": { "id": 11203, "insee": "11203", "communes_nom": "LEZIGNAN-CORBIERES", "communes_created": null, "communes_updated": null, "ID_Projet": "93", "Type_ouvrage": "Réservoir", "nom_projet": "Réservoir LEZIGNAN CORBIERES" }, "geometry": { "type": "Point", "coordinates": [ 2.762026204107146, 43.2040342261406 ] } },
{ "type": "Feature", "properties": { "id": 11395, "insee": "11395", "communes_nom": "TRASSANEL", "communes_created": null, "communes_updated": null, "ID_Projet": "68", "Type_ouvrage": "STEP - Station d'épuration", "nom_projet": "STEP TRASSANEL" }, "geometry": { "type": "Point", "coordinates": [ 2.442640528269249, 43.348759900011956 ] } },
{ "type": "Feature", "properties": { "id": 14118, "insee": "14118", "communes_nom": "CAEN", "communes_created": null, "communes_updated": null, "ID_Projet": "49", "Type_ouvrage": "RCU - Réseaux de chaleur urbains", "nom_projet": "RCU CAEN" }, "geometry": { "type": "Point", "coordinates": [ -0.369889862113997, 49.184974145441537 ] } },
{ "type": "Feature", "properties": { "id": 14167, "insee": "14167", "communes_nom": "COLOMBELLES", "communes_created": null, "communes_updated": null, "ID_Projet": "4", "Type_ouvrage": "Canalisations", "nom_projet": "Canalisations COLOMBELLES" }, "geometry": { "type": "Point", "coordinates": [ -0.283972585791391, 49.194547765207254 ] } },
{ "type": "Feature", "properties": { "id": 14271, "insee": "14271", "communes_nom": "FLEURY-SUR-ORNE", "communes_created": null, "communes_updated": null, "ID_Projet": "46", "Type_ouvrage": "RCU - Réseaux de chaleur urbains", "nom_projet": "RCU Fleury sur Orne" }, "geometry": { "type": "Point", "coordinates": [ -0.377493363795938, 49.144641419647613 ] } },
{ "type": "Feature", "properties": { "id": 14635, "insee": "14635", "communes_nom": "SAINT-OMER", "communes_created": null, "communes_updated": null, "ID_Projet": "19", "Type_ouvrage": "Canalisations", "nom_projet": "Canalisations ST OMER" }, "geometry": null },
{ "type": "Feature", "properties": { "id": 14654, "insee": "14654", "communes_nom": "SAINT-PIERRE-EN-AUGE", "communes_created": null, "communes_updated": null, "ID_Projet": "29", "Type_ouvrage": "RCU - Réseaux de chaleur urbains", "nom_projet": "RCU ST PIERRE EN AUGE" }, "geometry": { "type": "Point", "coordinates": [ 0.026795539696593, 48.993015759291161 ] } },
{ "type": "Feature", "properties": { "id": 17261, "insee": "17261", "communes_nom": "NEUVICQ LE CHATEAU", "communes_created": null, "communes_updated": null, "ID_Projet": "71", "Type_ouvrage": "STEP - Station d'épuration", "nom_projet": "STEP NEUVICQ LE CHATEAU" }, "geometry": { "type": "Point", "coordinates": [ -0.16073723052233, 45.812418438115749 ] } },
{ "type": "Feature", "properties": { "id": 19031, "insee": "19031", "communes_nom": "BRIVE LA GAILLARDE", "communes_created": null, "communes_updated": null, "ID_Projet": "122", "Type_ouvrage": "RCU - Réseaux de chaleur urbains", "nom_projet": "Réseau de chaleur" }, "geometry": { "type": "Point", "coordinates": [ 1.484748138330834, 45.143835272674202 ] } },
{ "type": "Feature", "properties": { "id": 21525, "insee": "21525", "communes_nom": "LA ROCHE-EN-BRENIL", "communes_created": null, "communes_updated": null, "ID_Projet": "75", "Type_ouvrage": "SDEP - Station de traitement d'eau potable", "nom_projet": "SDEP LA ROCHE EN BRENIL" }, "geometry": { "type": "Point", "coordinates": [ 4.171307703557485, 47.381860065946164 ] } },
{ "type": "Feature", "properties": { "id": 22086, "insee": "22086", "communes_nom": "KERFOT", "communes_created": null, "communes_updated": null, "ID_Projet": "9", "Type_ouvrage": "Canalisations", "nom_projet": "Canalisations KERFOT" }, "geometry": { "type": "Point", "coordinates": [ -3.037438481849676, 48.740691446513097 ] } },
{ "type": "Feature", "properties": { "id": 22136, "insee": "22136", "communes_nom": "LOUDEAC", "communes_created": null, "communes_updated": null, "ID_Projet": "72", "Type_ouvrage": "STEP - Station d'épuration", "nom_projet": "STEP LOUDEAC" }, "geometry": { "type": "Point", "coordinates": [ -2.750553588363689, 48.174403725419012 ] } },
{ "type": "Feature", "properties": { "id": 22333, "insee": "22333", "communes_nom": "SAINT-VRAN", "communes_created": null, "communes_updated": null, "ID_Projet": "95", "Type_ouvrage": "Réservoir", "nom_projet": "Réservoir ST VRAN" }, "geometry": { "type": "Point", "coordinates": [ -2.456960951922913, 48.243269527419656 ] } },
{ "type": "Feature", "properties": { "id": 27229, "insee": "27229", "communes_nom": "EVREUX", "communes_created": null, "communes_updated": null, "ID_Projet": "150", "Type_ouvrage": "RCU - Réseaux de chaleur urbains", "nom_projet": "Travaux d'extension du RCU de Thermevra" }, "geometry": { "type": "Point", "coordinates": [ 1.141505635238277, 49.019812580183967 ] } },
{ "type": "Feature", "properties": { "id": 27643, "insee": "27643", "communes_nom": "TILLIERES SUR AVRE", "communes_created": null, "communes_updated": null, "ID_Projet": "14", "Type_ouvrage": "Canalisations", "nom_projet": "Canalisations Tillieres sur Avre" }, "geometry": { "type": "Point", "coordinates": [ 1.028165065687649, 48.761045318575263 ] } },
{ "type": "Feature", "properties": { "id": 27681, "insee": "27681", "communes_nom": "VERNON", "communes_created": null, "communes_updated": null, "ID_Projet": "135", "Type_ouvrage": "RCU - Réseaux de chaleur urbains", "nom_projet": "Réfection du pont Clémenceau" }, "geometry": { "type": "Point", "coordinates": [ 1.484679508185493, 49.087780795996252 ] } },
{ "type": "Feature", "properties": { "id": 28085, "insee": "28085", "communes_nom": "CHARTRES", "communes_created": null, "communes_updated": null, "ID_Projet": "136", "Type_ouvrage": "RCU - Réseaux de chaleur urbains", "nom_projet": "Interconnexion Réseau de Chaleur Urbain" }, "geometry": { "type": "Point", "coordinates": [ 1.505706184236083, 48.447107576659505 ] } },
{ "type": "Feature", "properties": { "id": 29019, "insee": "29019", "communes_nom": "BREST", "communes_created": null, "communes_updated": null, "ID_Projet": "119", "Type_ouvrage": "RCU - Réseaux de chaleur urbains", "nom_projet": "Réseau de chaleur - Base Navale" }, "geometry": { "type": "Point", "coordinates": [ -4.502494919747266, 48.400327618343447 ] } },
{ "type": "Feature", "properties": { "id": 29046, "insee": "29046", "communes_nom": "DOUARNENEZ", "communes_created": "2002-09-16", "communes_updated": "2025-07-15", "ID_Projet": "23", "Type_ouvrage": "Canalisations", "nom_projet": "Canalisations DOUARNENEZ" }, "geometry": { "type": "Point", "coordinates": [ -4.327959311110833, 48.080141997550484 ] } },
{ "type": "Feature", "properties": { "id": 29105, "insee": "29105", "communes_nom": "LANDIVISIAU", "communes_created": null, "communes_updated": null, "ID_Projet": "86", "Type_ouvrage": "Réservoir", "nom_projet": "Réservoir LANDIVISIAU" }, "geometry": { "type": "Point", "coordinates": [ -4.060796201714636, 48.516445813165284 ] } },
{ "type": "Feature", "properties": { "id": 29151, "insee": "29151", "communes_nom": "MORLAIX", "communes_created": null, "communes_updated": null, "ID_Projet": "57", "Type_ouvrage": "RCU - Réseaux de chaleur urbains", "nom_projet": "RCU MORLAIX" }, "geometry": { "type": "Point", "coordinates": [ -3.820463916333235, 48.600154507397349 ] } },
{ "type": "Feature", "properties": { "id": 30258, "insee": "30258", "communes_nom": "ST GILLES", "communes_created": null, "communes_updated": null, "ID_Projet": "83", "Type_ouvrage": "Réservoir", "nom_projet": "Réservoir ST GILLES" }, "geometry": { "type": "Point", "coordinates": [ 4.40745298340921, 43.657868852964398 ] } },
{ "type": "Feature", "properties": { "id": 30288, "insee": "30288", "communes_nom": "SAINT-NAZAIRE", "communes_created": null, "communes_updated": null, "ID_Projet": "33", "Type_ouvrage": "RCU - Réseaux de chaleur urbains", "nom_projet": "RCU ST NAZAIRE" }, "geometry": { "type": "Point", "coordinates": [ 4.625280999696148, 44.194635216875064 ] } },
{ "type": "Feature", "properties": { "id": 31555, "insee": "31555", "communes_nom": "TOULOUSE", "communes_created": null, "communes_updated": null, "ID_Projet": "171", "Type_ouvrage": "RCU - Réseaux de chaleur urbains", "nom_projet": "Extension réseau de chaleur avenue de Lespinet" }, "geometry": { "type": "Point", "coordinates": [ 1.468659176488511, 43.577768893568006 ] } },
{ "type": "Feature", "properties": { "id": 33042, "insee": "33042", "communes_nom": "BELIN BELIET", "communes_created": null, "communes_updated": null, "ID_Projet": "74", "Type_ouvrage": "SDEP - Station de traitement d'eau potable", "nom_projet": "SDEP BELIN BELIET" }, "geometry": { "type": "Point", "coordinates": [ -0.786437458316643, 44.486071643457699 ] } },
{ "type": "Feature", "properties": { "id": 33119, "insee": "33119", "communes_nom": "CENON", "communes_created": null, "communes_updated": null, "ID_Projet": "47", "Type_ouvrage": "RCU - Réseaux de chaleur urbains", "nom_projet": "RCU CENON et LORMONT" }, "geometry": { "type": "Point", "coordinates": [ -0.52140636191855, 44.854912779496551 ] } },
{ "type": "Feature", "properties": { "id": 33239, "insee": "33239", "communes_nom": "LERM-ET-MUSSET", "communes_created": null, "communes_updated": null, "ID_Projet": "79", "Type_ouvrage": "SDEP - Station de traitement d'eau potable", "nom_projet": "SDEP LERM ET MUSSET" }, "geometry": { "type": "Point", "coordinates": [ -0.151279766436883, 44.340180693084129 ] } },
{ "type": "Feature", "properties": { "id": 33249, "insee": "33249", "communes_nom": "LORMONT", "communes_created": null, "communes_updated": null, "ID_Projet": "51", "Type_ouvrage": "RCU - Réseaux de chaleur urbains", "nom_projet": "RCU LORMONT" }, "geometry": { "type": "Point", "coordinates": [ -0.518464502626263, 44.876182691696236 ] } },
{ "type": "Feature", "properties": { "id": 34172, "insee": "34172", "communes_nom": "MONTPELLIER", "communes_created": null, "communes_updated": null, "ID_Projet": "73", "Type_ouvrage": "SDEP - Station de traitement d'eau potable", "nom_projet": "SDEP MONTPELLIER" }, "geometry": { "type": "Point", "coordinates": [ 3.869244783277576, 43.613351621599151 ] } },
{ "type": "Feature", "properties": { "id": 35238, "insee": "35238", "communes_nom": "RENNES", "communes_created": null, "communes_updated": null, "ID_Projet": "147", "Type_ouvrage": "RCU - Réseaux de chaleur urbains", "nom_projet": "Dilatation réseaux" }, "geometry": { "type": "Point", "coordinates": [ -1.641218745169779, 48.109109544457276 ] } },
{ "type": "Feature", "properties": { "id": 35284, "insee": "35284", "communes_nom": "SAINT-JOUAN-DES-GUERETS", "communes_created": null, "communes_updated": null, "ID_Projet": "20", "Type_ouvrage": "Canalisations", "nom_projet": "Canalisations ST JOUAN DES GUERETS" }, "geometry": { "type": "Point", "coordinates": [ -1.969213746839297, 48.602310392281346 ] } },
{ "type": "Feature", "properties": { "id": 37033, "insee": "37033", "communes_nom": "BOUSSAY", "communes_created": null, "communes_updated": null, "ID_Projet": "84", "Type_ouvrage": "Réservoir", "nom_projet": "Réservoir Boussay" }, "geometry": { "type": "Point", "coordinates": [ 0.892288598977786, 46.848092686688524 ] } },
{ "type": "Feature", "properties": { "id": 37122, "insee": "37122", "communes_nom": "JOUE LES TOURS", "communes_created": null, "communes_updated": null, "ID_Projet": "148", "Type_ouvrage": "RCU - Réseaux de chaleur urbains", "nom_projet": "Construction d'une centrale thermique biomasse" }, "geometry": { "type": "Point", "coordinates": [ 0.654044860268591, 47.332929507405773 ] } },
{ "type": "Feature", "properties": { "id": 38019, "insee": "38019", "communes_nom": "AUBERIVES-SUR-VAREZE", "communes_created": "2002-01-24", "communes_updated": "2025-05-05", "ID_Projet": "70", "Type_ouvrage": "STEP - Station d'épuration", "nom_projet": "STEP AUBERIVES SUR VAREZE" }, "geometry": { "type": "Point", "coordinates": [ 4.818841478473827, 45.426936845121944 ] } },
{ "type": "Feature", "properties": { "id": 38139, "insee": "38139", "communes_nom": "CREYS MEPIEU", "communes_created": null, "communes_updated": null, "ID_Projet": "54", "Type_ouvrage": "RCU - Réseaux de chaleur urbains", "nom_projet": "RCU CREYS MEPIEU" }, "geometry": { "type": "Point", "coordinates": [ 5.465063440114088, 45.744294505069973 ] } },
{ "type": "Feature", "properties": { "id": 38157, "insee": "38157", "communes_nom": "ESTRABLIN", "communes_created": null, "communes_updated": null, "ID_Projet": "40", "Type_ouvrage": "RCU - Réseaux de chaleur urbains", "nom_projet": "RCU ESTRABLIN" }, "geometry": { "type": "Point", "coordinates": [ 4.958513094358863, 45.513317932549917 ] } },
{ "type": "Feature", "properties": { "id": 38179, "insee": "38179", "communes_nom": "GIERES", "communes_created": null, "communes_updated": null, "ID_Projet": "41", "Type_ouvrage": "RCU - Réseaux de chaleur urbains", "nom_projet": "RCU GIERES" }, "geometry": { "type": "Point", "coordinates": [ 5.791255653571861, 45.18357036870178 ] } },
{ "type": "Feature", "properties": { "id": 38285, "insee": "38285", "communes_nom": "ORNON", "communes_created": null, "communes_updated": null, "ID_Projet": "65", "Type_ouvrage": "STEP - Station d'épuration", "nom_projet": "STEP ORNON" }, "geometry": { "type": "Point", "coordinates": [ 5.964963397123761, 45.040561224749119 ] } },
{ "type": "Feature", "properties": { "id": 38370, "insee": "38370", "communes_nom": "SAINT-BONNET-DE-CHAVAGNE", "communes_created": null, "communes_updated": null, "ID_Projet": "43", "Type_ouvrage": "RCU - Réseaux de chaleur urbains", "nom_projet": "RCU ST BONNET DE CHAVAGNE" }, "geometry": { "type": "Point", "coordinates": [ 5.22754473125065, 45.121282976152038 ] } },
{ "type": "Feature", "properties": { "id": 38475, "insee": "38475", "communes_nom": "SATOLAS-ET-BONCE", "communes_created": null, "communes_updated": null, "ID_Projet": "62", "Type_ouvrage": "STEP - Station d'épuration", "nom_projet": "STEP SATOLAS ET BONCE" }, "geometry": { "type": "Point", "coordinates": [ 5.125855914597869, 45.68277026379188 ] } },
{ "type": "Feature", "properties": { "id": 40167, "insee": "40167", "communes_nom": "LUXEY", "communes_created": null, "communes_updated": null, "ID_Projet": "94", "Type_ouvrage": "Réservoir", "nom_projet": "Réservoir LUXEY" }, "geometry": { "type": "Point", "coordinates": [ -0.515385642279067, 44.22063785177172 ] } },
{ "type": "Feature", "properties": { "id": 41248, "insee": "41248", "communes_nom": "COUETRON AU PERCHE", "communes_created": null, "communes_updated": null, "ID_Projet": "80", "Type_ouvrage": "Réservoir", "nom_projet": "Réservoir COUETRON AU PERCHE" }, "geometry": { "type": "Point", "coordinates": [ 0.893813016891951, 48.056108582062699 ] } },
{ "type": "Feature", "properties": { "id": 42218, "insee": "42218", "communes_nom": "SAINT ETIENNE", "communes_created": null, "communes_updated": null, "ID_Projet": "50", "Type_ouvrage": "RCU - Réseaux de chaleur urbains", "nom_projet": "RCU ST ETIENNE" }, "geometry": { "type": "Point", "coordinates": [ 4.41574269346659, 45.426230214563169 ] } },
{ "type": "Feature", "properties": { "id": 42275, "insee": "42275", "communes_nom": "SAINT-PRIEST-EN-JAREZ", "communes_created": null, "communes_updated": null, "ID_Projet": "25", "Type_ouvrage": "RCU - Réseaux de chaleur urbains", "nom_projet": "RCU ST PRIEST EN JAREZ" }, "geometry": { "type": "Point", "coordinates": [ 4.373501252761458, 45.475604175621932 ] } },
{ "type": "Feature", "properties": { "id": 44109, "insee": "44109", "communes_nom": "NANTES", "communes_created": null, "communes_updated": null, "ID_Projet": "60", "Type_ouvrage": "RCU - Réseaux de chaleur urbains", "nom_projet": "RCU NANTES" }, "geometry": { "type": "Point", "coordinates": [ -1.545277806314606, 47.229834892720447 ] } },
{ "type": "Feature", "properties": { "id": 44169, "insee": "44169", "communes_nom": "SAINT-JULIEN-DE-CONCELLES", "communes_created": null, "communes_updated": null, "ID_Projet": "2", "Type_ouvrage": "Canalisations", "nom_projet": "Canalisations ST JULIEN DE CONCELLES" }, "geometry": { "type": "Point", "coordinates": [ -1.40594678863194, 47.246823514699749 ] } },
{ "type": "Feature", "properties": { "id": 44197, "insee": "44197", "communes_nom": "SION LES MINES", "communes_created": null, "communes_updated": null, "ID_Projet": "98", "Type_ouvrage": "Réservoir", "nom_projet": "Réservoir SION LES MINES" }, "geometry": { "type": "Point", "coordinates": [ -1.581180082004252, 47.729166579434775 ] } },
{ "type": "Feature", "properties": { "id": 49007, "insee": "49007", "communes_nom": "ANGERS", "communes_created": null, "communes_updated": null, "ID_Projet": "151", "Type_ouvrage": "RCU - Réseaux de chaleur urbains", "nom_projet": "Réseau de Chaleur d'Orgemont ANGERS Marché branchements secondaires" }, "geometry": { "type": "Point", "coordinates": [ -0.55767851749172, 47.48710230877559 ] } },
{ "type": "Feature", "properties": { "id": 51621, "insee": "51621", "communes_nom": "VIENNE-LE-CHATEAU", "communes_created": null, "communes_updated": null, "ID_Projet": "64", "Type_ouvrage": "STEP - Station d'épuration", "nom_projet": "STEP VIENNE LE CHATEAU" }, "geometry": { "type": "Point", "coordinates": [ 4.924656942657699, 49.196327197793991 ] } },
{ "type": "Feature", "properties": { "id": 53116, "insee": "53116", "communes_nom": "LE HORPS", "communes_created": null, "communes_updated": null, "ID_Projet": "97", "Type_ouvrage": "Réservoir", "nom_projet": "Réservoir LE HORPS" }, "geometry": { "type": "Point", "coordinates": [ -0.463229696739688, 48.389415379200273 ] } },
{ "type": "Feature", "properties": { "id": 53130, "insee": "53130", "communes_nom": "LAVAL", "communes_created": null, "communes_updated": null, "ID_Projet": "125", "Type_ouvrage": "RCU - Réseaux de chaleur urbains", "nom_projet": "Réalisation des extensions sur le réseau de chaleur d'interconnexion du quartier Ferrie au quartier St Nicolas" }, "geometry": { "type": "Point", "coordinates": [ -0.788025417252157, 48.082545810143088 ] } },
{ "type": "Feature", "properties": { "id": 55557, "insee": "55557", "communes_nom": "VILLE EN WOEVRE", "communes_created": null, "communes_updated": null, "ID_Projet": "77", "Type_ouvrage": "SDEP - Station de traitement d'eau potable", "nom_projet": "SDEP VILLE EN WOEVRE" }, "geometry": { "type": "Point", "coordinates": [ 5.613299422942672, 49.138649066897621 ] } },
{ "type": "Feature", "properties": { "id": 57012, "insee": "57012", "communes_nom": "ALGRANGE", "communes_created": "2009-03-02", "communes_updated": "2023-02-17", "ID_Projet": "3", "Type_ouvrage": "Canalisations", "nom_projet": "Canalisations ALGRANGE" }, "geometry": { "type": "Point", "coordinates": [ 6.047835847955593, 49.364693067746749 ] } },
{ "type": "Feature", "properties": { "id": 57128, "insee": "57128", "communes_nom": "CHARLEVILLE SOUS BOIS", "communes_created": null, "communes_updated": null, "ID_Projet": "61", "Type_ouvrage": "STEP - Station d'épuration", "nom_projet": "STEP MUSSY L EVEQUE" }, "geometry": { "type": "Point", "coordinates": [ 6.406078954871828, 49.195079834166762 ] } },
{ "type": "Feature", "properties": { "id": 57444, "insee": "57444", "communes_nom": "MARANGE-ZONDRANGE", "communes_created": null, "communes_updated": null, "ID_Projet": "69", "Type_ouvrage": "STEP - Station d'épuration", "nom_projet": "STEP Marange Zondrange" }, "geometry": { "type": "Point", "coordinates": [ 6.528535597465143, 49.116708099325351 ] } },
{ "type": "Feature", "properties": { "id": 57447, "insee": "57447", "communes_nom": "MARLY", "communes_created": null, "communes_updated": null, "ID_Projet": "13", "Type_ouvrage": "Canalisations", "nom_projet": "Canalisations MARLY" }, "geometry": { "type": "Point", "coordinates": [ 6.152385868062987, 49.065910681701546 ] } },
{ "type": "Feature", "properties": { "id": 57463, "insee": "57463", "communes_nom": "METZ", "communes_created": null, "communes_updated": null, "ID_Projet": "45", "Type_ouvrage": "RCU - Réseaux de chaleur urbains", "nom_projet": "RCU METZ" }, "geometry": { "type": "Point", "coordinates": [ 6.195958863382559, 49.108226198156245 ] } },
{ "type": "Feature", "properties": { "id": 57591, "insee": "57591", "communes_nom": "ROMBAS", "communes_created": null, "communes_updated": null, "ID_Projet": "130", "Type_ouvrage": "RCU - Réseaux de chaleur urbains", "nom_projet": "Conception et réalisation d'un programme de construction d'un réseau de chaleur" }, "geometry": { "type": "Point", "coordinates": [ 6.087108378993626, 49.243977065510158 ] } },
{ "type": "Feature", "properties": { "id": 57616, "insee": "57616", "communes_nom": "SAINT-JULIEN-LES-METZ", "communes_created": null, "communes_updated": null, "ID_Projet": "10", "Type_ouvrage": "Canalisations", "nom_projet": "Canalisations ST Julien les Metz" }, "geometry": { "type": "Point", "coordinates": [ 6.208572320743616, 49.13952523831329 ] } },
{ "type": "Feature", "properties": { "id": 60026, "insee": "60026", "communes_nom": "AUCHY LA MONTAGNE", "communes_created": "2008-12-08", "communes_updated": "2025-08-05", "ID_Projet": "6", "Type_ouvrage": "Canalisations", "nom_projet": "Canalisations Auchy la montagne" }, "geometry": { "type": "Point", "coordinates": [ 2.119686590397746, 49.573673438083034 ] } },
{ "type": "Feature", "properties": { "id": 60082, "insee": "60082", "communes_nom": "BONNEUIL LES EAUX", "communes_created": null, "communes_updated": null, "ID_Projet": "67", "Type_ouvrage": "STEP - Station d'épuration", "nom_projet": "STEP BONNEUIL LES EAUX" }, "geometry": { "type": "Point", "coordinates": [ 2.243246364249102, 49.680685096606489 ] } },
{ "type": "Feature", "properties": { "id": 62024, "insee": "62024", "communes_nom": "ALQUINES", "communes_created": null, "communes_updated": null, "ID_Projet": "88", "Type_ouvrage": "Réservoir", "nom_projet": "Réservoir ALQUINES" }, "geometry": { "type": "Point", "coordinates": [ 1.993658251072985, 50.733805822612659 ] } },
{ "type": "Feature", "properties": { "id": 62094, "insee": "62094", "communes_nom": "BEAUMERIE ST MARTIN", "communes_created": null, "communes_updated": null, "ID_Projet": "91", "Type_ouvrage": "Réservoir", "nom_projet": "Réservoir BEAUMERIE ST MARTIN" }, "geometry": { "type": "Point", "coordinates": [ 1.796379123339807, 50.44630391589557 ] } },
{ "type": "Feature", "properties": { "id": 63019, "insee": "63019", "communes_nom": "AULNAT", "communes_created": null, "communes_updated": null, "ID_Projet": "22", "Type_ouvrage": "Canalisations", "nom_projet": "Canalisations AULNAT" }, "geometry": { "type": "Point", "coordinates": [ 3.170791320798153, 45.79308107101253 ] } },
{ "type": "Feature", "properties": { "id": 63113, "insee": "63113", "communes_nom": "CLERMONT FERRAND", "communes_created": null, "communes_updated": null, "ID_Projet": "53", "Type_ouvrage": "RCU - Réseaux de chaleur urbains", "nom_projet": "RCU CLERMONT FERRAND" }, "geometry": { "type": "Point", "coordinates": [ 3.115413417517475, 45.785919772633534 ] } },
{ "type": "Feature", "properties": { "id": 63201, "insee": "63201", "communes_nom": "LUZILLAT", "communes_created": null, "communes_updated": null, "ID_Projet": "16", "Type_ouvrage": "Canalisations", "nom_projet": "Canalisations LUZILLAT" }, "geometry": { "type": "Point", "coordinates": [ 3.385016929323684, 45.958983974636752 ] } },
{ "type": "Feature", "properties": { "id": 65059, "insee": "65059", "communes_nom": "BAGNERES DE BIGORRE", "communes_created": null, "communes_updated": null, "ID_Projet": "30", "Type_ouvrage": "RCU - Réseaux de chaleur urbains", "nom_projet": "RCU BAGNERES DE BIGORRE" }, "geometry": { "type": "Point", "coordinates": [ 0.132812619837358, 42.974860122052377 ] } },
{ "type": "Feature", "properties": { "id": 65138, "insee": "65138", "communes_nom": "CAUTERETS", "communes_created": null, "communes_updated": null, "ID_Projet": "156", "Type_ouvrage": "RCU - Réseaux de chaleur urbains", "nom_projet": "Travaux d'optimisation énergétique de la ressource Thermale et des installations communales" }, "geometry": { "type": "Point", "coordinates": [ -0.12691507369447, 42.852127695234394 ] } },
{ "type": "Feature", "properties": { "id": 68300, "insee": "68300", "communes_nom": "SAUSHEIM", "communes_created": null, "communes_updated": null, "ID_Projet": "63", "Type_ouvrage": "STEP - Station d'épuration", "nom_projet": "STEP SAUSHEIM" }, "geometry": { "type": "Point", "coordinates": [ 7.400460604848006, 47.782208837406039 ] } },
{ "type": "Feature", "properties": { "id": 69382, "insee": "69382", "communes_nom": "LYON", "communes_created": null, "communes_updated": null, "ID_Projet": "8", "Type_ouvrage": "Canalisations", "nom_projet": "Canalisations LYON" }, "geometry": { "type": "Point", "coordinates": [ 4.856035323259127, 45.757311351844145 ] } },
{ "type": "Feature", "properties": { "id": 71270, "insee": "71270", "communes_nom": "MACON", "communes_created": null, "communes_updated": null, "ID_Projet": "133", "Type_ouvrage": "RCU - Réseaux de chaleur urbains", "nom_projet": "Réfection du réseau de distributeur de chaleur" }, "geometry": { "type": "Point", "coordinates": [ 4.818566508176147, 46.32115850867158 ] } },
{ "type": "Feature", "properties": { "id": 72181, "insee": "72181", "communes_nom": "LE MANS", "communes_created": null, "communes_updated": null, "ID_Projet": "142", "Type_ouvrage": "RCU - Réseaux de chaleur urbains", "nom_projet": "Réseau de chaleur interconnexion chaufferie des bords de l'Huisne - Extension vers quartier des rives du Lac" }, "geometry": { "type": "Point", "coordinates": [ 0.200102379251272, 47.988627878137727 ] } },
{ "type": "Feature", "properties": { "id": 73065, "insee": "73065", "communes_nom": "CHAMBERY", "communes_created": null, "communes_updated": null, "ID_Projet": "154", "Type_ouvrage": "RCU - Réseaux de chaleur urbains", "nom_projet": "Rénovation du Chauffage urbain 2021" }, "geometry": { "type": "Point", "coordinates": [ 5.910703872197948, 45.57731359128146 ] } },
{ "type": "Feature", "properties": { "id": 74094, "insee": "74094", "communes_nom": "CRANVES SALES", "communes_created": null, "communes_updated": null, "ID_Projet": "44", "Type_ouvrage": "RCU - Réseaux de chaleur urbains", "nom_projet": "RCU CRANVES SALES" }, "geometry": { "type": "Point", "coordinates": [ 6.303445389213237, 46.197062985611325 ] } },
{ "type": "Feature", "properties": { "id": 76108, "insee": "76108", "communes_nom": "BOIS GUILLAUME", "communes_created": null, "communes_updated": null, "ID_Projet": "92", "Type_ouvrage": "Réservoir", "nom_projet": "Réservoir BOIS GUILLAUME" }, "geometry": { "type": "Point", "coordinates": [ 1.117971023996212, 49.47430032401563 ] } },
{ "type": "Feature", "properties": { "id": 76126, "insee": "76126", "communes_nom": "BOSC MESNIL", "communes_created": null, "communes_updated": null, "ID_Projet": "5", "Type_ouvrage": "Canalisations", "nom_projet": "Canalisations BOSC MESNIL" }, "geometry": { "type": "Point", "coordinates": [ 1.348248047557566, 49.668468239629846 ] } },
{ "type": "Feature", "properties": { "id": 76216, "insee": "76216", "communes_nom": "DEVILLE-LES-ROUEN", "communes_created": null, "communes_updated": null, "ID_Projet": "159", "Type_ouvrage": "RCU - Réseaux de chaleur urbains", "nom_projet": "RCU" }, "geometry": { "type": "Point", "coordinates": [ 1.051104375119565, 49.466707599080578 ] } },
{ "type": "Feature", "properties": { "id": 76322, "insee": "76322", "communes_nom": "GRAND QUEVILLY (LE)", "communes_created": null, "communes_updated": null, "ID_Projet": "158", "Type_ouvrage": "RCU - Réseaux de chaleur urbains", "nom_projet": "RCU - Quartier Marabout - Grand-Quevilly" }, "geometry": { "type": "Point", "coordinates": [ 1.039563926271518, 49.409803180908064 ] } },
{ "type": "Feature", "properties": { "id": 76351, "insee": "76351", "communes_nom": "LE HAVRE", "communes_created": null, "communes_updated": null, "ID_Projet": "149", "Type_ouvrage": "RCU - Réseaux de chaleur urbains", "nom_projet": "RCU Programme 2021" }, "geometry": { "type": "Point", "coordinates": [ 0.166679985572704, 49.499212493360019 ] } },
{ "type": "Feature", "properties": { "id": 76410, "insee": "76410", "communes_nom": "MAROMME", "communes_created": null, "communes_updated": null, "ID_Projet": "170", "Type_ouvrage": "RCU - Réseaux de chaleur urbains", "nom_projet": "Raccordement au réseau de chaleur de la maison Pélissier au réseau existant" }, "geometry": { "type": "Point", "coordinates": [ 1.026455238577102, 49.481234430024578 ] } },
{ "type": "Feature", "properties": { "id": 76412, "insee": "76412", "communes_nom": "MARTAINVILLE-EPREVILLE", "communes_created": null, "communes_updated": null, "ID_Projet": "165", "Type_ouvrage": "RCU - Réseaux de chaleur urbains", "nom_projet": "RCU Prog 21" }, "geometry": { "type": "Point", "coordinates": [ 1.294055552036169, 49.45219311582823 ] } },
{ "type": "Feature", "properties": { "id": 76540, "insee": "76540", "communes_nom": "ROUEN", "communes_created": null, "communes_updated": null, "ID_Projet": "132", "Type_ouvrage": "RCU - Réseaux de chaleur urbains", "nom_projet": "Tranchée couverte rive gauche, travaux d'étanchéité et de reprise des surfaces" }, "geometry": { "type": "Point", "coordinates": [ 1.074262993952846, 49.443774871619134 ] } },
{ "type": "Feature", "properties": { "id": 76561, "insee": "76561", "communes_nom": "SAINT AUBIN LES ELBEUF", "communes_created": null, "communes_updated": null, "ID_Projet": "82", "Type_ouvrage": "Réservoir", "nom_projet": "Réservoir ST AUBIN LES ELBEUF" }, "geometry": { "type": "Point", "coordinates": [ 1.017531211643613, 49.303055478671851 ] } },
{ "type": "Feature", "properties": { "id": 77199, "insee": "77199", "communes_nom": "FUBLAINES", "communes_created": null, "communes_updated": null, "ID_Projet": "18", "Type_ouvrage": "Canalisations", "nom_projet": "Canalisations FUBLAINES" }, "geometry": { "type": "Point", "coordinates": [ 2.941798266830507, 48.939068975037735 ] } },
{ "type": "Feature", "properties": { "id": 77330, "insee": "77330", "communes_nom": "NANTEUIL-LES-MEAUX", "communes_created": null, "communes_updated": null, "ID_Projet": "12", "Type_ouvrage": "Canalisations", "nom_projet": "Canalisations NANTEUIL LES MEAUX" }, "geometry": { "type": "Point", "coordinates": [ 2.898559138561386, 48.928126448494289 ] } },
{ "type": "Feature", "properties": { "id": 78335, "insee": "78335", "communes_nom": "LIMAY", "communes_created": null, "communes_updated": null, "ID_Projet": "17", "Type_ouvrage": "Canalisations", "nom_projet": "Canalisations LIMAY" }, "geometry": { "type": "Point", "coordinates": [ 1.740043972346521, 48.994630818560466 ] } },
{ "type": "Feature", "properties": { "id": 78440, "insee": "78440", "communes_nom": "MUREAUX (LES)", "communes_created": null, "communes_updated": null, "ID_Projet": "143", "Type_ouvrage": "RCU - Réseaux de chaleur urbains", "nom_projet": "Création RCU Branche Bécheville + GS Ferry" }, "geometry": { "type": "Point", "coordinates": [ 1.913974331681247, 48.989283855950738 ] } },
{ "type": "Feature", "properties": { "id": 78586, "insee": "78586", "communes_nom": "SARTROUVILLE", "communes_created": null, "communes_updated": null, "ID_Projet": "1", "Type_ouvrage": "Canalisations", "nom_projet": "Canalisations SARTROUVILLE" }, "geometry": { "type": "Point", "coordinates": [ 2.174497260961064, 48.939826171546905 ] } },
{ "type": "Feature", "properties": { "id": 83148, "insee": "83148", "communes_nom": "VIDAUBAN", "communes_created": null, "communes_updated": null, "ID_Projet": "96", "Type_ouvrage": "Réservoir", "nom_projet": "Réservoir VIDAUBAN" }, "geometry": { "type": "Point", "coordinates": [ 6.448908434757262, 43.401360193160194 ] } },
{ "type": "Feature", "properties": { "id": 85113, "insee": "85113", "communes_nom": "ILE-D'YEU (L')", "communes_created": null, "communes_updated": null, "ID_Projet": "89", "Type_ouvrage": "Réservoir", "nom_projet": "Réservoir L ILE D YEU" }, "geometry": { "type": "Point", "coordinates": [ -2.346709357956541, 46.70955173835754 ] } },
{ "type": "Feature", "properties": { "id": 87065, "insee": "87065", "communes_nom": "FEYTIAT", "communes_created": null, "communes_updated": null, "ID_Projet": "66", "Type_ouvrage": "STEP - Station d'épuration", "nom_projet": "STEP FEYTIAT" }, "geometry": { "type": "Point", "coordinates": [ 1.329099540920755, 45.805543915186462 ] } },
{ "type": "Feature", "properties": { "id": 87085, "insee": "87085", "communes_nom": "LIMOGES", "communes_created": null, "communes_updated": null, "ID_Projet": "38", "Type_ouvrage": "RCU - Réseaux de chaleur urbains", "nom_projet": "RCU LIMOGES" }, "geometry": { "type": "Point", "coordinates": [ 1.248835906381809, 45.854422556367936 ] } },
{ "type": "Feature", "properties": { "id": 88277, "insee": "88277", "communes_nom": "LUVIGNY", "communes_created": null, "communes_updated": null, "ID_Projet": "76", "Type_ouvrage": "SDEP - Station de traitement d'eau potable", "nom_projet": "SDEP LUVIGNY" }, "geometry": { "type": "Point", "coordinates": [ 7.077988450069769, 48.497380079197029 ] } }
]
}
