{
"type": "FeatureCollection",
"name": "revema_V1",
"crs": { "type": "name", "properties": { "name": "urn:ogc:def:crs:OGC:1.3:CRS84" } },
"features": [
{ "type": "Feature", "properties": { "id": 7336, "insee": "07736", "communes_nom": "VERNON", "communes_created": null, "communes_updated": null, "ID_Projet": "102", "Type_ouvrage": "Plateforme de revalorisation des déchets de chantier", "nom_projet": "Site de VERNON" }, "geometry": { "type": "Point", "coordinates": [ 4.225813415796937, 44.506137464020298 ] } },
{ "type": "Feature", "properties": { "id": 10399, "insee": "10399", "communes_nom": "VAUDES", "communes_created": null, "communes_updated": null, "ID_Projet": "105", "Type_ouvrage": "Plateforme de revalorisation des déchets de chantier", "nom_projet": "Site de VAUDES" }, "geometry": { "type": "Point", "coordinates": [ 4.182894247254619, 48.175684043107083 ] } },
{ "type": "Feature", "properties": { "id": 11258, "insee": "11258", "communes_nom": "MOUSSAN", "communes_created": null, "communes_updated": null, "ID_Projet": "114", "Type_ouvrage": "Plateforme de revalorisation des déchets de chantier", "nom_projet": "Site de MOUSSAN" }, "geometry": { "type": "Point", "coordinates": [ 2.956968911801746, 43.230398725585751 ] } },
{ "type": "Feature", "properties": { "id": 13004, "insee": "13004", "communes_nom": "ARLES", "communes_created": null, "communes_updated": null, "ID_Projet": "115", "Type_ouvrage": "Plateforme de revalorisation des déchets de chantier", "nom_projet": "Site de ARLES" }, "geometry": { "type": "Point", "coordinates": [ 4.66206178719043, 43.54669498879354 ] } },
{ "type": "Feature", "properties": { "id": 19274, "insee": "19274", "communes_nom": "USSAC", "communes_created": null, "communes_updated": null, "ID_Projet": "111", "Type_ouvrage": "Plateforme de revalorisation des déchets de chantier", "nom_projet": "Site de USSAC" }, "geometry": { "type": "Point", "coordinates": [ 1.511653978905181, 45.190170977884549 ] } },
{ "type": "Feature", "properties": { "id": 26064, "insee": "26064", "communes_nom": "CHABEUIL", "communes_created": null, "communes_updated": null, "ID_Projet": "110", "Type_ouvrage": "Plateforme de revalorisation des déchets de chantier", "nom_projet": "Site de CHABEUIL" }, "geometry": { "type": "Point", "coordinates": [ 5.007027642060979, 44.908644466717945 ] } },
{ "type": "Feature", "properties": { "id": 26235, "insee": "26235", "communes_nom": "PIERRELATTE", "communes_created": null, "communes_updated": null, "ID_Projet": "116", "Type_ouvrage": "Plateforme de revalorisation des déchets de chantier", "nom_projet": "Site de PIERRELATTE" }, "geometry": { "type": "Point", "coordinates": [ 4.687276440495581, 44.360830098000811 ] } },
{ "type": "Feature", "properties": { "id": 27008, "insee": "27008", "communes_nom": "ALIZAY", "communes_created": null, "communes_updated": null, "ID_Projet": "101", "Type_ouvrage": "Plateforme de revalorisation des déchets de chantier", "nom_projet": "Site de ALIZAY" }, "geometry": { "type": "Point", "coordinates": [ 1.178370617796838, 49.322071842062478 ] } },
{ "type": "Feature", "properties": { "id": 31555, "insee": "31555", "communes_nom": "TOULOUSE", "communes_created": null, "communes_updated": null, "ID_Projet": "113", "Type_ouvrage": "Plateforme de revalorisation des déchets de chantier", "nom_projet": "Site de TOULOUSE" }, "geometry": { "type": "Point", "coordinates": [ 1.432092200463061, 43.596009282759276 ] } },
{ "type": "Feature", "properties": { "id": 33273, "insee": "33273", "communes_nom": "MARTIGNAS SUR JALLE", "communes_created": null, "communes_updated": null, "ID_Projet": "112", "Type_ouvrage": "Plateforme de revalorisation des déchets de chantier", "nom_projet": "Site de MARTIGNAS SUR JALLE" }, "geometry": { "type": "Point", "coordinates": [ -0.796279318303937, 44.845120002854941 ] } },
{ "type": "Feature", "properties": { "id": 50270, "insee": "50270", "communes_nom": "LIEUSAINT", "communes_created": null, "communes_updated": null, "ID_Projet": "103", "Type_ouvrage": "Plateforme de revalorisation des déchets de chantier", "nom_projet": "Site de LIEUSAINT" }, "geometry": { "type": "Point", "coordinates": [ -1.47300702352856, 49.483621154455591 ] } },
{ "type": "Feature", "properties": { "id": 55313, "insee": "55313", "communes_nom": "MALANCOURT", "communes_created": null, "communes_updated": null, "ID_Projet": "104", "Type_ouvrage": "Plateforme de revalorisation des déchets de chantier", "nom_projet": "Site de MALANCOURT" }, "geometry": { "type": "Point", "coordinates": [ 5.175661612355245, 49.235672942278057 ] } },
{ "type": "Feature", "properties": { "id": 59574, "insee": "59574", "communes_nom": "SOMAIN", "communes_created": null, "communes_updated": null, "ID_Projet": "99", "Type_ouvrage": "Plateforme de revalorisation des déchets de chantier", "nom_projet": "Site de SOMAIN" }, "geometry": { "type": "Point", "coordinates": [ 3.275552872579948, 50.359976657363376 ] } },
{ "type": "Feature", "properties": { "id": 67205, "insee": "67205", "communes_nom": "HOERDT", "communes_created": null, "communes_updated": null, "ID_Projet": "106", "Type_ouvrage": "Plateforme de revalorisation des déchets de chantier", "nom_projet": "Site de HOERDT" }, "geometry": { "type": "Point", "coordinates": [ 7.784541709505633, 48.6904254580353 ] } },
{ "type": "Feature", "properties": { "id": 68145, "insee": "68145", "communes_nom": "HORBOURG WIHR", "communes_created": null, "communes_updated": null, "ID_Projet": "107", "Type_ouvrage": "Plateforme de revalorisation des déchets de chantier", "nom_projet": "Site de HORBOURG WIHR" }, "geometry": { "type": "Point", "coordinates": [ 7.403498423676083, 48.083191191063648 ] } },
{ "type": "Feature", "properties": { "id": 68376, "insee": "68376", "communes_nom": "WITTENHEIM", "communes_created": null, "communes_updated": null, "ID_Projet": "108", "Type_ouvrage": "Plateforme de revalorisation des déchets de chantier", "nom_projet": "Site de WITTENHEIM" }, "geometry": { "type": "Point", "coordinates": [ 7.312632100740998, 47.810604362484945 ] } },
{ "type": "Feature", "properties": { "id": 69289, "insee": "69289", "communes_nom": "SAINT-PIERRE-DE-CHANDIEU", "communes_created": null, "communes_updated": null, "ID_Projet": "109", "Type_ouvrage": "Plateforme de revalorisation des déchets de chantier", "nom_projet": "Site de ST PIERRE DE CHANDIEU" }, "geometry": { "type": "Point", "coordinates": [ 5.008769157912682, 45.645105746655027 ] } },
{ "type": "Feature", "properties": { "id": 76484, "insee": "76484", "communes_nom": "OISSEL-SUR-SEINE", "communes_created": null, "communes_updated": null, "ID_Projet": "117", "Type_ouvrage": "Plateforme de revalorisation des déchets de chantier", "nom_projet": "Site de OISSEL SUR SEINE" }, "geometry": { "type": "Point", "coordinates": [ 1.073858985963841, 49.347768110816389 ] } },
{ "type": "Feature", "properties": { "id": 76618, "insee": "76618", "communes_nom": "PETIT-CAUX", "communes_created": null, "communes_updated": null, "ID_Projet": "100", "Type_ouvrage": "Plateforme de revalorisation des déchets de chantier", "nom_projet": "Site de PENLY" }, "geometry": { "type": "Point", "coordinates": [ 1.254340991184711, 49.955304789960252 ] } },
{ "type": "Feature", "properties": { "id": 93005, "insee": "93005", "communes_nom": "AULNAY SOUS BOIS", "communes_created": null, "communes_updated": null, "ID_Projet": "118", "Type_ouvrage": "Plateforme de revalorisation des déchets de chantier", "nom_projet": "Site de AULNAY SOUS BOIS" }, "geometry": { "type": "Point", "coordinates": [ 2.493460628963265, 48.945880432908297 ] } }
]
}
